[{"_id":"5414dbc11998e10000f559a4","section":"123","longitude":-71.123507,"latitude":42.409542,"address":"10 Winthrop Street Medford, MA 02155","name":"10 Winthrop Street","__v":0,"hours":null},{"_id":"5414dbc11998e10000f559a6","section":"123","longitude":-71.12187,"latitude":42.405945,"address":"101 Talbot Avenue Medford, MA 02155","name":"101 Talbot Avenue","__v":0,"hours":null},{"_id":"5414dbc11998e10000f5599c","section":"123","longitude":-71.116285,"latitude":42.404075,"phone":"617-627-4000","address":"108 Bromfield Road Somerville, MA 02144","name":"108 Bromfield Road","__v":0,"hours":null},{"_id":"5414dbc11998e10000f559aa","section":"123","longitude":-71.122946,"latitude":42.405775,"phone":"617-627-3568","address":"108 Packard Avenue Medford, MA 02155","name":"108 Packard Avenue","__v":0,"hours":null},{"_id":"5414dbc11998e10000f559a2","section":"123","longitude":-71.122879,"latitude":42.405877,"phone":"617-627-3233","address":"112 Packard Avenue Medford, MA 02155","name":"112 Packard Avenue","__v":0,"hours":null},{"_id":"5414dbc11998e10000f559ad","section":"123","longitude":-71.11618,"latitude":42.404839,"address":"12 Dearborn Road Medford, MA 02155","name":"12 Dearborn Road","__v":0,"hours":null},{"_id":"5414dbc11998e10000f559b6","section":"123","longitude":-71.122819,"latitude":42.406046,"address":"120 Packard Avenue Medford, MA 02155","name":"120 Packard Avenue","__v":0,"hours":null},{"_id":"5414dbc11998e10000f559b9","section":"123","longitude":-71.124729,"latitude":42.407593,"address":"126 Curtis Street Medford, MA 02155","name":"126 Curtis Street","__v":0,"hours":null},{"_id":"5414dbc11998e10000f559bc","section":"123","longitude":-71.124095,"latitude":42.407272,"address":"128 Professors Row Medford, MA 02155","name":"128 Professors Row","__v":0,"hours":null},{"_id":"5414dbc11998e10000f559b4","section":"123","longitude":-71.123558,"latitude":42.406236,"address":"16-20 Sawyer Avenue Medford, MA 02155","name":"16-20 Sawyer Avenue","__v":0,"hours":null},{"_id":"5414dbc11998e10000f559b0","section":"123","longitude":-71.123716,"latitude":42.409188,"address":"176 Curtis Street Medford, MA 02155","name":"176 Curtis Street","__v":0,"hours":null},{"_id":"5414dbc11998e10000f559bf","section":"123","longitude":-71.11687,"latitude":42.408211,"address":"177 College Avenue Medford, MA 02155","name":"177 College Avenue","__v":0,"hours":null},{"_id":"5414dbc11998e10000f559c2","section":"123","longitude":-71.118827,"latitude":42.405357,"address":"20 Professors Row Medford, MA 02155","name":"20 Professors Row","__v":0,"hours":null},{"_id":"5414dbc11998e10000f559c8","section":"123","longitude":-71.127259,"latitude":42.415965,"address":"200 Boston Avenue Medford, MA 02155","name":"200 Boston Avenue","__v":0,"hours":null},{"_id":"5414dbc11998e10000f559cf","section":"123","longitude":-71.12263,"latitude":42.410811,"phone":"617-627-5720","address":"26 Winthrop Street Medford, MA 02155","name":"26 Winthrop Street","__v":0,"hours":null},{"_id":"5414dbc11998e10000f559c5","section":"123","longitude":-71.12378,"latitude":42.406391,"address":"28 Sawyer Avenue Medford, MA 02155","name":"28 Sawyer Avenue","__v":0,"hours":null},{"_id":"5414dbc11998e10000f559cc","section":"123","longitude":-71.125264,"latitude":42.405646,"phone":"617-627-3530","address":"44 Teele Avenue Medford, MA 02155","name":"44 Teele Avenue","__v":0,"hours":null},{"_id":"5414dbc11998e10000f559d0","section":"123","longitude":-71.120304,"latitude":42.405886,"phone":"617-627-3342","address":"48 Professors Row Medford, MA 02155","name":"48 Professors Row","__v":0,"hours":null},{"_id":"5414dbc11998e10000f559d2","section":"123","longitude":-71.121433,"latitude":42.410963,"address":"51 Winthrop Street Medford, MA 02155","name":"51 Winthrop Street","__v":0,"hours":null},{"_id":"5414dbc11998e10000f559d5","section":"123","longitude":-71.119868,"latitude":42.405224,"phone":"617-627-3184","address":"55 Talbot Avenue Medford, MA 02155","name":"55 Talbot Avenue","__v":0,"hours":null},{"_id":"5414dbc11998e10000f559df","section":"123","longitude":-71.115494,"latitude":42.411784,"address":"80 George Street Medford, MA 02155","name":"80 George Street","__v":0,"hours":null},{"_id":"5414dbc11998e10000f559d8","section":"123","longitude":-71.125192,"latitude":42.406244,"address":"89-91 Curtis Street Medford, MA 02155","name":"89-91 Curtis Street","__v":0,"hours":null},{"_id":"5414dbc11998e10000f559dc","section":"123","longitude":-71.124437,"latitude":42.408724,"address":"9-11 Sunset Road Medford, MA 02155","name":"9-11 Sunset Road","__v":0,"hours":null},{"_id":"5414dbc11998e10000f559e5","section":"123","longitude":-71.125544,"latitude":42.40644,"address":"90-94 Curtis Street Medford, MA 02155","name":"90-94 Curtis Street","__v":0,"hours":null},{"_id":"5414dbc11998e10000f559e6","section":"123","longitude":-71.123228,"latitude":42.405373,"phone":"617-627-3314","address":"96 Packard Avenue Medford, MA 02155","name":"96 Packard Avenue","__v":0,"hours":null},{"_id":"5414dbc11998e10000f559ed","section":"123","longitude":-71.121687,"latitude":42.405871,"phone":"617-627-3394","address":"97 Talbot Avenue Medford, MA 02155","name":"97 Talbot Avenue","__v":0,"hours":null},{"_id":"5414dbc11998e10000f559f0","section":"A","longitude":-71.120731,"latitude":42.404414,"address":"35 Lower Campus Road Medford, MA 02155","name":"Academic Computing Building","__v":0,"hours":null},{"_id":"5414dbc11998e10000f559e9","section":"A","longitude":-71.119378,"latitude":42.404511,"address":"40 Talbot Avenue Medford, MA 02155","name":"Aidekman Arts Center","__v":0,"hours":null},{"_id":"5414dbc11998e10000f559f2","section":"A","longitude":-71.122756,"latitude":42.406747,"address":"98 Professors Row Medford, MA 02155","name":"Alpha Epsilon Pi","__v":0,"hours":null},{"_id":"5414dbc11998e10000f559f1","section":"A","longitude":-71.123882,"latitude":42.406132,"address":"25 Whitfield Road Somerville, MA 02144","name":"Alpha Omicron Pi","__v":0,"hours":null},{"_id":"5414dbc11998e10000f559f5","section":"A","longitude":-71.123221,"latitude":42.406213,"address":"14 Sawyer Avenue Somerville, MA 02144","name":"Alpha Phi","__v":0,"hours":null},{"_id":"5414dbc11998e10000f559f3","section":"A","longitude":-71.124426,"latitude":42.407352,"address":"134 Professors Row Somerville, MA 02144","name":"Alpha Tau Omega","__v":0,"hours":null},{"_id":"5414dbc11998e10000f559f7","section":"A","longitude":-71.119188,"latitude":42.404738,"address":"40 Talbot Avenue Medford, MA 02155","name":"Alumnae Hall","__v":0,"hours":null},{"_id":"5414dbc11998e10000f559f6","section":"A","longitude":-71.121063,"latitude":42.405838,"address":"95 Talbot Avenue Medford, MA 02155","name":"Alumni House","__v":0,"hours":null},{"_id":"5414dbc11998e10000f559fa","section":"A","longitude":-71.116957,"latitude":42.406101,"address":"200 College Avenue Medford, MA 02155","name":"Anderson Hall","__v":0,"hours":null},{"_id":"5414dbc11998e10000f559f8","section":"A","longitude":-71.11841,"latitude":42.405313,"address":"14 Professors Row Medford, MA 02155","name":"Anthony House","__v":0,"hours":null},{"_id":"5414dbc11998e10000f55a03","section":"B","longitude":-71.115171,"latitude":42.404898,"address":"530 Boston Avenue Medford, MA 02155","name":"Bacon Hall","__v":0,"hours":null},{"_id":"5414dbc11998e10000f55a00","section":"B","longitude":-71.11926,"latitude":42.404483,"address":"40 Talbot Avenue Medford, MA 02155","name":"Balch Arena Theater","__v":0,"hours":null},{"_id":"5414dbc11998e10000f559fe","section":"B","longitude":-71.120351,"latitude":42.407364,"address":"1 The Green Medford, MA 02155","name":"Ballou Hall","__v":0,"hours":null},{"_id":"5414dbc11998e10000f55a0a","section":"B","longitude":-71.120945,"latitude":42.407528,"address":"163 Packard Avenue Medford, MA 02155","name":"Barnum Hall","__v":0,"hours":null},{"_id":"5414dbc11998e10000f55a06","section":"B","longitude":-71.119641,"latitude":42.403098,"address":"20 Lower Campus Road Medford, MA 02155","name":"Baronian Field House","__v":0,"hours":null},{"_id":"5414dbc11998e10000f55a0d","section":"B","longitude":-71.123302,"latitude":42.406559,"address":"37 Sawyer Avenue Medford, MA 02155","name":"Bartol House","__v":0,"hours":null},{"_id":"5414dbc11998e10000f55a0f","section":"B","longitude":-71.119889,"latitude":42.408097,"phone":"617-627-3170","address":"2 The Green Medford, MA 02155","name":"Bendetson Hall","__v":0,"hours":null},{"_id":"5414dbc11998e10000f55a12","section":"B","longitude":-71.122703,"latitude":42.407942,"address":"1 Winthrop Street Medford, MA 02155","name":"Blakeley Hall","__v":0,"hours":null},{"_id":"5414dbc11998e10000f55a17","section":"B","longitude":-71.124601,"latitude":42.407769,"address":"132 Curtis Street Medford, MA 02155","name":"Blakeslee House","__v":0,"hours":null},{"_id":"5414dbc11998e10000f55a15","section":"B","longitude":-71.117717,"latitude":42.405062,"phone":"617-627-3770","address":"226 College Avenue Medford, MA 02155","name":"Bolles House","__v":0,"hours":null},{"_id":"5414dbc11998e10000f55a21","section":"B","longitude":-71.118229,"latitude":42.407306,"phone":"617-627-3560","address":"8 Upper Campus Road Medford, MA 02155","name":"Braker Hall","__v":0,"hours":null},{"_id":"5414dbc11998e10000f55a1b","section":"B","longitude":-71.11558,"latitude":42.40554,"address":"504 Boston Avenue Medford, MA 02155","name":"Bray Laboratory","__v":0,"hours":null},{"_id":"5414dbc11998e10000f55a19","section":"B","longitude":-71.116363,"latitude":42.404824,"phone":"617-627-3380","address":"16 Dearborn Road Medford, MA 02155","name":"Bromfield House","__v":0,"hours":null},{"_id":"5414dbc11998e10000f55a23","section":"B","longitude":-71.116568,"latitude":42.405399,"phone":"617-627-3235","address":"503 Boston Avenue Medford, MA 02155","name":"Bromfield-Pearson","__v":0,"hours":null},{"_id":"5414dbc21998e10000f55a25","section":"B","longitude":-71.11658,"latitude":42.406815,"address":"474 Boston Ave Medford, MA 02155","name":"Brown & Brew","__v":0,"hours":{"friday":{"start":28800,"end":57600},"thursday":{"start":28800,"end":64800},"wednesday":{"start":28800,"end":64800},"tuesday":{"start":28800,"end":64800},"monday":{"start":28800,"end":64800}}},{"_id":"5414dbc21998e10000f55a2b","section":"B","longitude":-71.122006,"latitude":42.404987,"address":"29 Latin Way Medford, MA 02155","name":"Bush Hall","__v":0,"hours":null},{"_id":"5414dbc21998e10000f55a35","section":"C","longitude":-71.121678,"latitude":42.407826,"address":"170 Packard Avenue Medford, MA 02155","name":"Cabot Intercultural Center","__v":0,"hours":null},{"_id":"5414dbc21998e10000f55a28","section":"C","longitude":-71.12026,"latitude":42.405547,"phone":"617-627-3468","address":"46 Professors Row Medford, MA 02155","name":"Campus Bookstore","__v":0,"hours":null},{"_id":"5414dbc21998e10000f55a2f","section":"C","longitude":-71.120259,"latitude":42.405547,"address":"44 Professors Row Medford, MA 02155","name":"Campus Center","__v":0,"hours":null},{"_id":"5414dbc21998e10000f55a32","section":"C","longitude":-71.118072,"latitude":42.405312,"address":"8 Professors Row Medford, MA 02155","name":"Capen House","__v":0,"hours":null},{"_id":"5414dbc21998e10000f55a38","section":"C","longitude":-71.122951,"latitude":42.408935,"phone":"617-627-3557","address":"200 Packard Avenue Medford, MA 02155","name":"Carmichael","__v":0,"hours":{"sunday":{"start":28800,"end":75600},"saturday":{"start":39600,"end":72000},"friday":{"start":26100,"end":72000},"thursday":{"start":26100,"end":72000},"wednesday":{"start":26100,"end":72000},"tuesday":{"start":26100,"end":72000},"monday":{"start":26100,"end":72000}}},{"_id":"5414dbc21998e10000f55a3b","section":"C","longitude":-71.123707,"latitude":42.409383,"address":"8 Winthrop Street Medford, MA 02155","name":"Carpenter House","__v":0,"hours":null},{"_id":"5414dbc21998e10000f55a43","section":"C","longitude":-71.118432,"latitude":42.407908,"address":"100 North Hill Road Medford, MA 02155","name":"Central Heating Building","__v":0,"hours":null},{"_id":"5414dbc21998e10000f55a41","section":"C","longitude":-71.115257,"latitude":42.405099,"address":"520 Boston Avenue Medford, MA 02155","name":"Central Services","__v":0,"hours":null},{"_id":"5414dbc21998e10000f55a3f","section":"C","longitude":-71.123619,"latitude":42.404721,"address":"125 Powderhouse Boulevard Medford, MA 02155","name":"Chandler House","__v":0,"hours":null},{"_id":"5414dbc21998e10000f55a4a","section":"C","longitude":-71.123002,"latitude":42.406798,"address":"106 Professors Row Somerville, MA 02144","name":"Chi Omega","__v":0,"hours":null},{"_id":"5414dbc21998e10000f55a47","section":"C","longitude":-71.118938,"latitude":42.404526,"address":"40 Talbot Avenue Medford, MA 02155","name":"Cohen Auditorium","__v":0,"hours":null},{"_id":"5414dd48e5f1e2000040d71d","section":"C","address":"44 Professors Row Medford, MA 02155","longitude":-71.120259,"latitude":42.405547,"name":"Commons Deli & Grill","__v":0,"hours":null},{"_id":"5414dbc21998e10000f55a4d","section":"C","longitude":-71.120144,"latitude":42.404664,"address":"54 Talbot Avenue Medford, MA 02155","name":"Costume Shop","__v":0,"hours":null},{"_id":"5414dbc21998e10000f55a50","section":"C","longitude":-71.116541,"latitude":42.408773,"address":"161 College Avenue Medford, MA 02155","name":"Cousens Gym","__v":0,"hours":null},{"_id":"5414dbc21998e10000f55a55","section":"C","longitude":-71.116557,"latitude":42.40695,"address":"474 Boston Avenue Medford, MA 02155","name":"Curtis Hall","__v":0,"hours":null},{"_id":"5414dbc21998e10000f55a58","section":"D","longitude":-71.121103,"latitude":42.407684,"address":"165 Packard Avenue Medford, MA 02155","name":"Dana Laboratory","__v":0,"hours":null},{"_id":"5414dbc21998e10000f55a53","section":"D","longitude":-71.123036,"latitude":42.406461,"address":"13 Sawyer Avenue Medford, MA 02155","name":"Davies House","__v":0,"hours":null},{"_id":"5414dbc21998e10000f55a5b","section":"D","longitude":-71.121483,"latitude":42.406258,"address":"72 Professors Row Medford, MA 02155","name":"Dearborn House","__v":0,"hours":null},{"_id":"5414dbc21998e10000f55a5c","section":"D","longitude":-71.123508,"latitude":42.407007,"address":"114 Professors Row Somerville, MA 02144","name":"Delta Upsilon","__v":0,"hours":null},{"_id":"5414dbc21998e10000f55a5d","section":"D","longitude":-71.121693,"latitude":42.405166,"phone":"617-627-3462","address":"25 Latin Way Medford, MA 02155","name":"Dewick-MacPhie","__v":0,"hours":{"sunday":{"start":39600,"end":75600},"saturday":{"start":28800,"end":72000},"friday":{"start":28800,"end":72000},"thursday":{"start":28800,"end":75600},"wednesday":{"start":28800,"end":75600},"tuesday":{"start":28800,"end":75600},"monday":{"start":28800,"end":75600}}},{"_id":"5414dbc21998e10000f55a5f","section":"D","longitude":-71.118203,"latitude":42.408097,"phone":"617-627-2000","address":"419 Boston Avenue Medford, MA 02155","name":"Dowling Hall","__v":0,"hours":null},{"_id":"5414dbc21998e10000f55a5e","section":"E","longitude":-71.118953,"latitude":42.407637,"address":"6 The Green Medford, MA 02155","name":"East Hall","__v":0,"hours":null},{"_id":"5414dbc21998e10000f55a6a","section":"E","longitude":-71.118808,"latitude":42.406717,"address":"5 The Green Medford, MA 02155","name":"Eaton Hall","__v":0,"hours":null},{"_id":"5414dbc21998e10000f55a69","section":"E","longitude":-71.114747,"latitude":42.410136,"address":"105 College Avenue Medford, MA 02155","name":"Eliot-Pearson Child Development Center","__v":0,"hours":null},{"_id":"5414dbc21998e10000f55a65","section":"E","longitude":-71.114592,"latitude":42.410033,"address":"105 College Avenue Medford, MA 02155","name":"Eliot-Pearson Children's School","__v":0,"hours":null},{"_id":"5414dbc21998e10000f55a6f","section":"F","longitude":-71.121335,"latitude":42.409956,"address":"21-23 Fairmount Street Medford, MA 02155","name":"Fairmont House","__v":0,"hours":null},{"_id":"5414dbc21998e10000f55a6c","section":"F","longitude":-71.118115,"latitude":42.404973,"address":"11 Talbot Avenue Medford, MA 02155","name":"Fine Arts House","__v":0,"hours":null},{"_id":"5414dbc21998e10000f55a71","section":"G","longitude":-71.115559,"latitude":42.409588,"address":"161 College Avenue Medford, MA 02155","name":"Gantcher Center","__v":0,"hours":null},{"_id":"5414dbc21998e10000f55a72","section":"G","longitude":-71.121481,"latitude":42.407032,"phone":"617-627-3300","address":"161 Packard Avenue Medford, MA 02155","name":"Gifford House","__v":0,"hours":null},{"_id":"5414dbc21998e10000f55a74","section":"G","longitude":-71.119446,"latitude":42.406947,"address":"3 The Green Medford, MA 02155","name":"Goddard Chapel","__v":0,"hours":null},{"_id":"5414dbc21998e10000f55a77","section":"G","longitude":-71.121479,"latitude":42.407478,"address":"160 Packard Avenue Medford, MA 02155","name":"Goddard Hall","__v":0,"hours":null},{"_id":"5414dbc21998e10000f55a76","section":"G","longitude":-71.121051,"latitude":42.40933,"phone":"617-627-3242","address":"220 Packard Avenue Medford, MA 02155","name":"Granoff Family Hillel Center","__v":0,"hours":null},{"_id":"5414dbc21998e10000f55a78","section":"H","longitude":-71.123165,"latitude":42.405465,"address":"98 Packard Avenue Medford, MA 02155","name":"Hall House","__v":0,"hours":null},{"_id":"5414dbc21998e10000f55a79","section":"H","longitude":-71.116402,"latitude":42.408222,"address":"161 College Avenue Medford, MA 02155","name":"Halligan Hall","__v":0,"hours":null},{"_id":"5414dbc21998e10000f55a7a","section":"H","longitude":-71.119115,"latitude":42.408541,"address":"10-80 North Hill Road Medford, MA 02155","name":"Hallowell Hall","__v":0,"hours":null},{"_id":"5414dbc21998e10000f55a7f","section":"H","longitude":-71.115874,"latitude":42.409002,"address":"161 College Ave Medford, MA 02155","name":"Hamilton Pool","__v":0,"hours":null},{"_id":"5414dbc21998e10000f55a7c","section":"H","longitude":-71.122171,"latitude":42.40413,"address":"43 Latin Way Medford, MA 02155","name":"Haskell Hall","__v":0,"hours":null},{"_id":"5414dbc21998e10000f55a80","section":"H","longitude":-71.125109,"latitude":42.408372,"address":"17 Chetwynd Road Medford, MA 02155","name":"Hayes House","__v":0,"hours":null},{"_id":"5414dbc21998e10000f55a7b","section":"H","longitude":-71.124003,"latitude":42.407049,"phone":"617-627-3350","address":"124 Professors Row Somerville, MA 02144","name":"Health Service","__v":0,"hours":null},{"_id":"5414dbc21998e10000f55a7e","section":"H","longitude":-71.119819,"latitude":42.409466,"address":"387 Boston Avenue Medford, MA 02155","name":"Hill Hall","__v":0,"hours":null},{"_id":"5414dbc21998e10000f55a7d","section":"H","longitude":-71.117136,"latitude":42.404948,"address":"32 Dearborn Road Medford, MA 02155","name":"Hillside House","__v":0,"hours":null},{"_id":"5414dbc21998e10000f55a81","section":"H","longitude":-71.119227,"latitude":42.408971,"address":"10-80 North Hill Road Medford, MA 02155","name":"Hillside Housing 1","__v":0,"hours":null},{"_id":"5414dbc21998e10000f55a82","section":"H","longitude":-71.119584,"latitude":42.408782,"address":"10-80 North Hill Road Medford, MA 02155","name":"Hillside Housing 2","__v":0,"hours":null},{"_id":"5414dbc21998e10000f55a84","section":"H","longitude":-71.122139,"latitude":42.405214,"phone":"617-627-2917","address":"100 Talbot Avenue Medford, MA 02155","name":"Hodgdon","__v":0,"hours":{"friday":{"start":27000,"end":57600},"thursday":{"start":27000,"end":79200},"wednesday":{"start":27000,"end":79200},"tuesday":{"start":27000,"end":79200},"monday":{"start":27000,"end":79200}}},{"_id":"5414dd48e5f1e2000040d71e","section":"H","address":"44 Professors Row Medford, MA 02155","longitude":-71.120259,"latitude":42.405547,"name":"Hotung Cafe","__v":0,"hours":null},{"_id":"5414dbc21998e10000f55a85","section":"H","longitude":-71.122535,"latitude":42.408424,"address":"190 Packard Avenue Medford, MA 02155","name":"Houston Hall","__v":0,"hours":null},{"_id":"5414dbc21998e10000f55a83","section":"I","longitude":-71.122352,"latitude":42.411342,"address":"58 Winthrop Street Medford, MA 02155","name":"Interfaith Center","__v":0,"hours":null},{"_id":"5414dbc21998e10000f55a87","section":"J","longitude":-71.119731,"latitude":42.404749,"address":"50 Talbot Avenue Medford, MA 02155","name":"Jackson Gym","__v":0,"hours":null},{"_id":"5414dd48e5f1e2000040d71a","section":"J","address":"44 Professors Row Medford, MA 02155","longitude":-71.120259,"latitude":42.405547,"name":"Jumbo Express","__v":0,"hours":null},{"_id":"5414dd48e5f1e2000040d71b","section":"K","address":"44 Professors Row Medford, MA 02155","longitude":-71.120259,"latitude":42.405547,"name":"Kosher Deli","__v":0,"hours":null},{"_id":"5414dbc21998e10000f55a86","section":"L","longitude":-71.119804,"latitude":42.408994,"address":"2 North Hill Road Medford, MA 02155","name":"Lane Hall","__v":0,"hours":null},{"_id":"5414dbc21998e10000f55a88","section":"L","longitude":-71.121545,"latitude":42.404132,"address":"40A-F Lower Campus Road Medford, MA 02155","name":"Latin Way Dormitory","__v":0,"hours":null},{"_id":"5414dbc21998e10000f55a8a","section":"L","longitude":-71.118813,"latitude":42.404648,"address":"40 Talbot Avenue Medford, MA 02155","name":"Leir Hall","__v":0,"hours":null},{"_id":"5414dbc21998e10000f55a89","section":"L","longitude":-71.12296,"latitude":42.40481,"address":"75 Packard Avenue Medford, MA 02155","name":"Lewis Hall","__v":0,"hours":null},{"_id":"5414dbc21998e10000f55a8c","section":"L","longitude":-71.117891,"latitude":42.407299,"address":"10 Upper Campus Road Medford, MA 02155","name":"Lincoln Filene Center","__v":0,"hours":null},{"_id":"5414dbc21998e10000f55a8b","section":"M","longitude":-71.124053,"latitude":42.410955,"address":"28 Capen Street Medford, MA 02155","name":"McCollester House","__v":0,"hours":null},{"_id":"5414dbc21998e10000f55a8e","section":"M","longitude":-71.121089,"latitude":42.40605,"address":"56 Professors Row Medford, MA 02155","name":"MetCalf Hall","__v":0,"hours":null},{"_id":"5414dbc21998e10000f55a8d","section":"M","longitude":-71.12088,"latitude":42.40471,"address":"62 Talbot Avenue Medford, MA 02155","name":"Michael Laboratory","__v":0,"hours":null},{"_id":"5414dbc21998e10000f55a90","section":"M","longitude":-71.121743,"latitude":42.409189,"address":"210 Packard Avenue Medford, MA 02155","name":"Miller Hall","__v":0,"hours":null},{"_id":"5414dbc21998e10000f55a8f","section":"M","longitude":-71.123345,"latitude":42.405608,"address":"8-10 Whitfield Road Medford, MA 02155","name":"Milne House","__v":0,"hours":null},{"_id":"5414dbc21998e10000f55a93","section":"M","longitude":-71.117988,"latitude":42.406428,"address":"14 Upper Campus Road Medford, MA 02155","name":"Miner Hall","__v":0,"hours":null},{"_id":"5414dd48e5f1e2000040d71f","section":"M","address":"160R Packard Avenue Medford, MA 02155","longitude":-71.122504,"latitude":42.407799,"name":"Mugar Cafe","__v":0,"hours":{"friday":{"start":28800,"end":50400},"thursday":{"start":28800,"end":63000},"wednesday":{"start":28800,"end":63000},"tuesday":{"start":28800,"end":63000},"monday":{"start":28800,"end":63000}}},{"_id":"5414dbc21998e10000f55a92","section":"M","longitude":-71.122504,"latitude":42.407799,"phone":"617-627-5099","address":"160R Packard Avenue Medford, MA 02155","name":"Mugar Hall","__v":0,"hours":null},{"_id":"5414dbc21998e10000f55a91","section":"O","longitude":-71.116706,"latitude":42.407945,"address":"179 College Avenue Medford, MA 02155","name":"Office Services","__v":0,"hours":null},{"_id":"5414dbc21998e10000f55a94","section":"O","longitude":-71.121448,"latitude":42.408149,"address":"180 Packard Avenue Medford, MA 02155","name":"Olin Center","__v":0,"hours":null},{"_id":"5414dbc21998e10000f55a95","section":"P","longitude":-71.119485,"latitude":42.407848,"address":"4 The Green Medford, MA 02155","name":"Packard Hall","__v":0,"hours":null},{"_id":"5414dbc21998e10000f55a97","section":"P","longitude":-71.117584,"latitude":42.406685,"phone":"617-627-3244","address":"12 Upper Campus Road Medford, MA 02155","name":"Paige Hall","__v":0,"hours":null},{"_id":"5414dbc21998e10000f55a98","section":"P","longitude":-71.120766,"latitude":42.404922,"address":"62 Talbot Avenue Medford, MA 02155","name":"Pearson Chemical Laboratory","__v":0,"hours":null},{"_id":"5414dbc21998e10000f55a96","section":"P","longitude":-71.118605,"latitude":42.404313,"phone":"617-627-3679","address":"20 Talbot Avenue Medford, MA 02155","name":"Perry and Marty Granoff Music Center","__v":0,"hours":null},{"_id":"5414dbc21998e10000f55a99","section":"P","longitude":-71.116024,"latitude":42.406126,"phone":"617-627-3523","address":"490 Boston Avenue Medford, MA 02155","name":"Psychology Building","__v":0,"hours":null},{"_id":"5414dbc21998e10000f55a9a","section":"R","longitude":-71.11866,"latitude":42.404561,"address":"15 Lower Campus Road Medford, MA 02155","name":"Remis Sculpture Court","__v":0,"hours":null},{"_id":"5414dd48e5f1e2000040d71c","section":"R","address":"44 Professors Row Medford, MA 02155","longitude":-71.120259,"latitude":42.405547,"name":"Rez Cafe","__v":0,"hours":{"sunday":{"start":43200,"end":0},"saturday":{"start":43200,"end":64800},"friday":{"start":28800,"end":64800},"thursday":{"start":28800,"end":79200},"wednesday":{"start":28800,"end":0},"tuesday":{"start":28800,"end":0},"monday":{"start":28800,"end":0}}},{"_id":"5414dbc21998e10000f55a9c","section":"R","longitude":-71.119307,"latitude":42.405475,"address":"28 Professors Row Medford, MA 02155","name":"Richardson House","__v":0,"hours":null},{"_id":"5414dbc21998e10000f55a9b","section":"R","longitude":-71.117175,"latitude":42.405689,"address":"212 College Avenue Medford, MA 02155","name":"Robinson Hall","__v":0,"hours":null},{"_id":"5414dbc21998e10000f55a9e","section":"S","longitude":-71.124895,"latitude":42.407286,"address":"120 Curtis Street Medford, MA 02155","name":"Sawyer House","__v":0,"hours":null},{"_id":"5414dbc21998e10000f55a9d","section":"S","longitude":-71.115191,"latitude":42.405125,"address":"530 Boston Avenue Medford, MA 02155","name":"Scene Shop","__v":0,"hours":null},{"_id":"5414dbc21998e10000f55aa0","section":"S","longitude":-71.123172,"latitude":42.405867,"address":"11 Whitfield Road Medford, MA 02155","name":"Schmalz House","__v":0,"hours":null},{"_id":"5414dbc21998e10000f55a9f","section":"S","longitude":-71.113225,"latitude":42.403363,"address":"4 Colby Street Medford, MA 02155","name":"Science and Technology Center","__v":0,"hours":null},{"_id":"5414dbc21998e10000f55aa1","section":"S","longitude":-71.122469,"latitude":42.40664,"address":"92 Professors Row Medford, MA 02155","name":"Sigma Nu","__v":0,"hours":null},{"_id":"5414dbc21998e10000f55aa2","section":"S","longitude":-71.125067,"latitude":42.407128,"address":"114 Curtis Street Somerville, MA 02144","name":"Sigma Phi Epsilon","__v":0,"hours":null},{"_id":"5414dbc21998e10000f55aa3","section":"S","longitude":-71.118723,"latitude":42.405227,"address":"15 Talbot Avenue Medford, MA 02155","name":"Sophia Gordon Hall","__v":0,"hours":null},{"_id":"5414dbc21998e10000f55aa5","section":"S","longitude":-71.120542,"latitude":42.40353,"address":"30 Lower Campus Road Medford, MA 02155","name":"South Hall","__v":0,"hours":null},{"_id":"5414dbc21998e10000f55aa4","section":"S","longitude":-71.120994,"latitude":42.405639,"address":"17 Latin Way Medford, MA 02155","name":"Start House","__v":0,"hours":null},{"_id":"5414dbc21998e10000f55aa7","section":"S","longitude":-71.119459,"latitude":42.405102,"address":"45 Talbot Avenue Medford, MA 02155","name":"Stratton Hall","__v":0,"hours":null},{"_id":"5414dbc21998e10000f55aa8","section":"T","longitude":-71.124896,"latitude":42.402161,"address":"169 Holland Street Somerville, MA 02144","name":"TAB","__v":0,"hours":null},{"_id":"5414dbc21998e10000f55aa9","section":"T","longitude":-71.12313,"latitude":42.405572,"address":"100 Packard Avenue Somerville, MA 02144","name":"Theta Chi","__v":0,"hours":null},{"_id":"5414dbc21998e10000f55aab","section":"T","longitude":-71.121892,"latitude":42.406191,"address":"123 Packard Avenue Somerville, MA 02144","name":"Theta Delta Chi","__v":0,"hours":null},{"_id":"5414dbc21998e10000f55aa6","section":"T","longitude":-71.122441,"latitude":42.404461,"address":"1 Tilton Lane Medford, MA 02155","name":"Tilton Hall","__v":0,"hours":null},{"_id":"5449696fc7fd7e0000b43e65","section":"T","address":"35 Professors Row Medford, MA 02155","longitude":-71.118749,"latitude":42.405866,"name":"Tisch Digital Design Studio","__v":0,"hours":null},{"_id":"5414dbc21998e10000f55aaa","section":"T","longitude":-71.118749,"latitude":42.405866,"phone":"617-627-3347","address":"35 Professors Row Medford, MA 02155","name":"Tisch Library","__v":0,"hours":{"sunday":{"start":36000,"end":3600},"saturday":{"start":36000,"end":75600},"friday":{"start":28800,"end":75600},"thursday":{"start":28800,"end":3600},"wednesday":{"start":28800,"end":3600},"tuesday":{"start":28800,"end":3600},"monday":{"start":28800,"end":3600}}},{"_id":"5449696fc7fd7e0000b43e64","section":"T","address":"35 Professors Row Medford, MA 02155","longitude":-71.118749,"latitude":42.405866,"name":"Tisch Media Center","__v":0,"hours":null},{"_id":"5414dbc21998e10000f55aac","section":"T","longitude":-71.123949,"latitude":42.410433,"address":"14 Edison Avenue Medford, MA 02155","name":"Tousey House","__v":0,"hours":null},{"_id":"5414dd48e5f1e2000040d720","section":"T","address":"35 Professors Row Medford, MA 02155","longitude":-71.118749,"latitude":42.405866,"name":"Tower Cafe","__v":0,"hours":{"sunday":{"start":3600,"end":86400},"saturday":{"start":68400,"end":86400},"friday":{"start":36000,"end":68400},"thursday":{"start":3600,"end":36000},"wednesday":{"start":3600,"end":36000},"tuesday":{"start":3600,"end":36000},"monday":{"start":3600,"end":36000}}},{"_id":"5414dbc21998e10000f55aad","section":"W","longitude":-71.12053,"latitude":42.408226,"address":"175 Packard Avenue Medford, MA 02155","name":"West Hall","__v":0,"hours":null},{"_id":"5414dbc21998e10000f55aae","section":"W","longitude":-71.073947,"latitude":42.410668,"address":"177 Corporation Way Medford, MA 02155","name":"William A. Shoemaker Boathouse at Tufts University","__v":0,"hours":null},{"_id":"5414dbc21998e10000f55aaf","section":"W","longitude":-71.124742,"latitude":42.407882,"address":"136 Curtis Street Medford, MA 02155","name":"Wilson House","__v":0,"hours":null},{"_id":"5414dbc21998e10000f55ab0","section":"W","longitude":-71.121548,"latitude":42.409493,"address":"11 Winthrop Street Medford, MA 02155","name":"Wren Hall","__v":0,"hours":null},{"_id":"5414dbc21998e10000f55ab1","section":"W","longitude":-71.123338,"latitude":42.405928,"address":"21 Whitfield Road Medford, MA 02155","name":"Wyeth House","__v":0,"hours":null},{"_id":"5414dbc21998e10000f55ab2","section":"Z","longitude":-71.122598,"latitude":42.40636,"address":"126 Packard Avenue Somerville, MA 02144","name":"Zeta Beta Tau","__v":0,"hours":null},{"_id":"5414dbc21998e10000f55ab3","section":"Z","longitude":-71.121896,"latitude":42.406367,"address":"80 Professors Row Somerville, MA 02144","name":"Zeta Psi","__v":0,"hours":null}]